{
    
    "results": [
        {
            "geometry": {
                "location": {
                    "lat": 12.978028,
                    "lng": 77.599647
                }
            },
            "icon": "http://maps.gstatic.com/mapfiles/place_api/icons/fitness-71.png",
            "name": "Figurine Fitness",
            "description": "No. 10, MG Road, Chinnaswamy Stadium, Shanthala Nagar, Bengaluru 560001"
        },
        {
            "geometry": {
                "location": {
                    "lat": 12.966851,
                    "lng": 77.599434
                }
            },
            "icon": "http://maps.gstatic.com/mapfiles/place_api/icons/fitness-71.png",
            "name": "ZELA Luxury Health Club",
           "description": "Ground Floor,The Residency,133/1 Residency Road, Near The Chancery Pavilion Hotel, Bangalore"
        },
        {
            "geometry": {
                "location": {
                    "lat": 12.963868,
                    "lng": 77.592422
                }
            },
            "icon": "http://maps.gstatic.com/mapfiles/place_api/icons/fitness-71.png",
           "name": "Eternal Fitness",
           "description": "# 112, 566, M S Plaza,3rd Floor 13 A Cross, Opposite Telephone Exchange, Near S R Nagar Police Station, 4th Main Road, Sampangi Rama Nagar, Bengaluru"
        },
        {
            "geometry": {
                "location": {
                    "lat": 12.971104,
                    "lng": 77.592831
                }
            },
            "icon": "http://maps.gstatic.com/mapfiles/place_api/icons/fitness-71.png",
            "name": "Bapuji Surgicals",
           "description": "Ambedkar Veedhi, Sampangi Rama Nagar, Bengaluru"
        },
        {
            "geometry": {
                "location": {
                    "lat": 12.970633,
                    "lng": 77.5943
                }
            },
            "icon": "http://maps.gstatic.com/mapfiles/place_api/icons/fitness-71.png",
            "name": "Fitness Grove Gym",
            "description": "2, St Joseph's Indian High School Campus, Opposite-U B City, Vittal Mallya Road, Bengaluru"
        },
        {
            "geometry": {
                "location": {
                    "lat": 12.971599,
                    "lng": 77.594563
                }
            },
            "icon": "http://maps.gstatic.com/mapfiles/place_api/icons/fitness-71.png",
           "name": "Karnataka Health & F W Society",
           "description": "2, Ipp Building, S C Road, Anandrao Circle, S C Road, Bengaluru"
        },
        {
            "geometry": {
                "location": {
                    "lat": 12.969407,
                    "lng": 77.602372
                }
            },
            "icon": "http://maps.gstatic.com/mapfiles/place_api/icons/fitness-71.png",
            "name": "Creative Body Works",
            "description": "No 15, Cotton Complex, Residency Road, Residency Road, Bengaluru"
        },
        {
            "geometry": {
                "location": {
                    "lat": 12.971599,
                    "lng": 77.594563
                }
            },
            "icon": "http://maps.gstatic.com/mapfiles/place_api/icons/fitness-71.png",
            "name": "Wellness & Nutrition India Private Limited",
           "description": "114, Parangipalya, 24th Main Road, Sector2, Housar Layout, Housar Layout, Bengaluru"
        },
        {
            "geometry": {
                "location": {
                    "lat": 12.971606,
                    "lng": 77.594376
                }
            },
            "icon": "http://maps.gstatic.com/mapfiles/place_api/icons/fitness-71.png",
            "name": "Reach Fitness",
            "description": "# 1 ,1st stage , 1st main , KHB colony , Basavehwaranagar , Bangalore-560079., Bengaluru"
        },
        {
            "geometry": {
                "location": {
                    "lat": 12.963985,
                    "lng": 77.592441
                }
            },
            "icon": "http://maps.gstatic.com/mapfiles/place_api/icons/fitness-71.png",
            "name": "FOR-IN FITNESS ACADAMY",
           "description": "MS Plaza, 4th Main Road, Sampangi Rama Nagar, Bengaluru"
        },
        {
            "geometry": {
                "location": {
                    "lat": 12.971599,
                    "lng": 77.594563
                }
            },
            "icon": "http://maps.gstatic.com/mapfiles/place_api/icons/fitness-71.png",
            "name": "Mighty Fit Aerobics",
            "description": "1087, 18th Main, 66th Cross, Rajaji Nagar, Near National Public School, Rajaji Nagar, Bengaluru"
        },
        {
            "geometry": {
                "location": {
                    "lat": 12.970764,
                    "lng": 77.603042
                }
            },
            "icon": "http://maps.gstatic.com/mapfiles/place_api/icons/fitness-71.png",
            "name": "St.Joseph's PU Gym and Non Veg Canteen",
            "description": "FM Cariappa Road, Shanthala Nagar, Ashok Nagar, Bengaluru"
        },
        {
            "geometry": {
                "location": {
                    "lat": 12.967633,
                    "lng": 77.586697
                }
            },
            "icon": "http://maps.gstatic.com/mapfiles/place_api/icons/fitness-71.png",
			"name": "KRS Multi Gym",
           "description": "Shop No.12/1, Bannappa Park Road, Cubbonpete, Nagarathpete, Bengaluru"
        },
        {
            "geometry": {
                "location": {
                    "lat": 12.971599,
                    "lng": 77.594563
                }
            },
            "icon": "http://maps.gstatic.com/mapfiles/place_api/icons/fitness-71.png",
            "name": "Anams Cyclenzn Sports",
            "description": "52/53 3rd Block, Anam Plaza, 8th Main, J Nagar, J Nagar, Bengaluru"
        },
        {
            "geometry": {
                "location": {
                    "lat": 12.971599,
                    "lng": 77.594563
                }
            },
            "icon": "http://maps.gstatic.com/mapfiles/place_api/icons/fitness-71.png",
            "name": "Acunea Health Club",
           "description": "2047, 1st Stage, Rcp Layout, 10 Cross 1 Main, V Nagar, V Nagar, Bengaluru"
        },
        {
            "geometry": {
                "location": {
                    "lat": 12.971599,
                    "lng": 77.594563
                }
            },
            "icon": "http://maps.gstatic.com/mapfiles/place_api/icons/fitness-71.png",
            "name": "Zainabiya Primary Healthy Centre",
            "description": "90, Austin Town, Near Bda Shopping Complex, Austin Town, Bengaluru"
        },
        {
            "geometry": {
                "location": {
                    "lat": 12.973895,
                    "lng": 77.593676
                }
            },
            "icon": "http://maps.gstatic.com/mapfiles/place_api/icons/fitness-71.png",
            "name": "TATA MOTORS JAI SAI AUTO CENTER",
			"description": "Sasthapur Bangla, Karnataka 17.821899, 76.940151"
        },
        {
            "geometry": {
                "location": {
                    "lat": 12.971599,
                    "lng": 77.594563
                }
            },
            "icon": "http://maps.gstatic.com/mapfiles/place_api/icons/fitness-71.png",
            "name": "Atmada Shanyogaashram",
            "description": "589 7blk West, 10crs, I Nagar, I Nagar, Bengaluru"
        }
    ],
    "status": "OK"
}